{
  "results": [
    {
      "address_components": [
        {
          "long_name": "Google Building 40",
          "short_name": "Google Building 40",
          "types": ["premise"]
        },
        {
          "long_name": "1600",
          "short_name": "1600",
          "types": ["street_number"]
        },
        {
          "long_name": "Amphitheatre Parkway",
          "short_name": "Amphitheatre Pkwy",
          "types": ["route"]
        },
        {
          "long_name": "Mountain View",
          "short_name": "Mountain View",
          "types": ["locality", "political"]
        },
        {
          "long_name": "Santa Clara County",
          "short_name": "Santa Clara County",
          "types": ["administrative_area_level_2", "political"]
        },
        {
          "long_name": "California",
          "short_name": "CA",
          "types": ["administrative_area_level_1", "political"]
        },
        {
          "long_name": "United States",
          "short_name": "US",
          "types": ["country", "political"]
        },
        {
          "long_name": "94043",
          "short_name": "94043",
          "types": ["postal_code"]
        }
      ],
      "formatted_address": "Google Building 40, 1600 Amphitheatre Pkwy, Mountain View, CA 94043, USA",
      "geometry": {
        "bounds": {
          "northeast": {
            "lat": 37.4226621,
            "lng": -122.0829306
          },
          "southwest": {
            "lat": 37.4220703,
            "lng": -122.0849584
          }
        },
        "location": {
          "lat": 37.422388,
          "lng": -122.0841883
        },
        "location_type": "ROOFTOP",
        "viewport": {
          "northeast": {
            "lat": 37.4237655302915,
            "lng": -122.0825955197085
          },
          "southwest": {
            "lat": 37.4210675697085,
            "lng": -122.0852934802915
          }
        }
      },
      "place_id": "ChIJj38IfwK6j4ARNcyPDnEGa9g",
      "types": ["premise"]
    }
  ],
  "status": "OK"
}
